{"type": "FeatureCollection", "features": [{"type": "Feature", "geometry": {"type": "Point", "coordinates": [-84.4045, 33.7667]}, "properties": {"name": "Antioch Urban Ministries", "address": "466 Northside Dr NW, Atlanta, GA 30318", "phone": "(404) 524-9775", "neighborhood": "English Avenue", "city": "Atlanta", "county": "Fulton", "site_type": "Church Pantry", "tier": "High-confidence base layer"}}, {"type": "Feature", "geometry": {"type": "Point", "coordinates": [-84.3541, 33.7728]}, "properties": {"name": "Intown Cares", "address": "1026 Ponce De Leon Ave NE, Atlanta, GA 30306", "phone": "(404) 590-6956", "neighborhood": "Virginia Highland", "city": "Atlanta", "county": "Fulton", "site_type": "Church Pantry", "tier": "High-confidence base layer"}}, {"type": "Feature", "geometry": {"type": "Point", "coordinates": [-84.3892, 33.7508]}, "properties": {"name": "Central Outreach & Advocacy Center", "address": "201 Washington St SW, Atlanta, GA 30303", "phone": "(404) 659-0274", "neighborhood": "Downtown", "city": "Atlanta", "county": "Fulton", "site_type": "Church Pantry", "tier": "High-confidence base layer"}}, {"type": "Feature", "geometry": {"type": "Point", "coordinates": [-84.4578, 33.7812]}, "properties": {"name": "Fountain of Hope", "address": "829 Hollywood Rd NW, Atlanta, GA 30318", "phone": "(404) 963-6409", "neighborhood": "NW Atlanta", "city": "Atlanta", "county": "Fulton", "site_type": "Church Pantry", "tier": "High-confidence base layer"}}, {"type": "Feature", "geometry": {"type": "Point", "coordinates": [-84.4246, 33.7373]}, "properties": {"name": "Hosea Helps", "address": "1035 Donnelly Ave SW, Atlanta, GA 30310", "phone": "(404) 755-3353", "neighborhood": "West End", "city": "Atlanta", "county": "Fulton", "site_type": "Church Pantry", "tier": "High-confidence base layer"}}, {"type": "Feature", "geometry": {"type": "Point", "coordinates": [-84.3489, 33.7438]}, "properties": {"name": "First Iconium Baptist Church", "address": "542 Moreland Ave SE, Atlanta, GA 30316", "phone": "(404) 622-0801", "neighborhood": "SE Atlanta", "city": "Atlanta", "county": "DeKalb", "site_type": "Church Pantry", "tier": "Metro expansion"}}, {"type": "Feature", "geometry": {"type": "Point", "coordinates": [-84.3756, 33.7555]}, "properties": {"name": "Wheat Street Baptist Church", "address": "359 Auburn Ave NE, Atlanta, GA 30312", "phone": "(404) 659-4328", "neighborhood": "Sweet Auburn", "city": "Atlanta", "county": "Fulton", "site_type": "Church Pantry", "tier": "Metro expansion"}}, {"type": "Feature", "geometry": {"type": "Point", "coordinates": [-84.5, 33.727]}, "properties": {"name": "Cascade United Methodist Church", "address": "3144 Cascade Rd SW, Atlanta, GA 30311", "phone": "(404) 691-5770", "neighborhood": "Cascade Heights", "city": "Atlanta", "county": "Fulton", "site_type": "Church Pantry", "tier": "Metro expansion"}}, {"type": "Feature", "geometry": {"type": "Point", "coordinates": [-84.515, 33.7052]}, "properties": {"name": "Ben Hill United Methodist Church", "address": "2099 Fairburn Rd SW, Atlanta, GA 30331", "phone": "(404) 344-0618", "neighborhood": "Ben Hill", "city": "Atlanta", "county": "Fulton", "site_type": "Church Pantry", "tier": "Metro expansion"}}, {"type": "Feature", "geometry": {"type": "Point", "coordinates": [-84.4125, 33.737]}, "properties": {"name": "West Hunter Street Baptist Church", "address": "1040 Ralph David Abernathy Blvd SW, Atlanta, GA 30310", "phone": "(404) 688-7300", "neighborhood": "West End", "city": "Atlanta", "county": "Fulton", "site_type": "Church Pantry", "tier": "Metro expansion"}}, {"type": "Feature", "geometry": {"type": "Point", "coordinates": [-84.447, 33.7515]}, "properties": {"name": "Mount Vernon Baptist Church", "address": "1988 MLK Jr Dr NW, Atlanta, GA 30314", "phone": "(404) 752-0306", "neighborhood": "West Atlanta", "city": "Atlanta", "county": "Fulton", "site_type": "Church Pantry", "tier": "Metro expansion"}}, {"type": "Feature", "geometry": {"type": "Point", "coordinates": [-84.326, 33.739]}, "properties": {"name": "Greater Piney Grove Baptist Church", "address": "1879 Glenwood Ave SE, Atlanta, GA 30316", "phone": "(404) 377-0560", "neighborhood": "East Atlanta", "city": "Atlanta", "county": "DeKalb", "site_type": "Church Pantry", "tier": "Metro expansion"}}, {"type": "Feature", "geometry": {"type": "Point", "coordinates": [-84.45, 33.7639]}, "properties": {"name": "St Luke Missionary Baptist Church", "address": "1985 Joseph E Boone Blvd NW, Atlanta, GA 30314", "phone": "(404) 792-5800", "neighborhood": "NW Atlanta", "city": "Atlanta", "county": "Fulton", "site_type": "Church Pantry", "tier": "Metro expansion"}}, {"type": "Feature", "geometry": {"type": "Point", "coordinates": [-84.468, 33.705]}, "properties": {"name": "Tabernacle Baptist Church", "address": "2800 Campbellton Rd SW, Atlanta, GA 30311", "phone": "(404) 349-2464", "neighborhood": "SW Atlanta", "city": "Atlanta", "county": "Fulton", "site_type": "Church Pantry", "tier": "Metro expansion"}}, {"type": "Feature", "geometry": {"type": "Point", "coordinates": [-84.4, 33.748]}, "properties": {"name": "Friendship Baptist Church", "address": "437 Mitchell St SW, Atlanta, GA 30313", "phone": "(404) 688-5959", "neighborhood": "Downtown", "city": "Atlanta", "county": "Fulton", "site_type": "Church Pantry", "tier": "Metro expansion"}}, {"type": "Feature", "geometry": {"type": "Point", "coordinates": [-84.386, 33.834]}, "properties": {"name": "Cathedral of St. Philip Pantry", "address": "2744 Peachtree Rd NW, Atlanta, GA 30305", "phone": "(404) 365-1000", "neighborhood": "Buckhead", "city": "Atlanta", "county": "Fulton", "site_type": "Church Pantry", "tier": "Metro expansion"}}, {"type": "Feature", "geometry": {"type": "Point", "coordinates": [-84.315, 33.924]}, "properties": {"name": "St Patrick's Episcopal Church Pantry", "address": "4755 N Peachtree Rd, Dunwoody, GA 30338", "phone": "(770) 394-2485", "neighborhood": "Dunwoody", "city": "Dunwoody", "county": "DeKalb", "site_type": "Church Pantry", "tier": "Metro expansion"}}, {"type": "Feature", "geometry": {"type": "Point", "coordinates": [-84.3, 33.885]}, "properties": {"name": "Holy Cross Catholic Church Pantry", "address": "3773 Chamblee Tucker Rd, Atlanta, GA 30341", "phone": "(770) 939-3501", "neighborhood": "Chamblee", "city": "Chamblee", "county": "DeKalb", "site_type": "Church Pantry", "tier": "Metro expansion"}}, {"type": "Feature", "geometry": {"type": "Point", "coordinates": [-84.373, 33.754]}, "properties": {"name": "Our Lady of Lourdes Pantry", "address": "25 Boulevard NE, Atlanta, GA 30312", "phone": "(404) 522-6776", "neighborhood": "Old Fourth Ward", "city": "Atlanta", "county": "Fulton", "site_type": "Church Pantry", "tier": "Metro expansion"}}, {"type": "Feature", "geometry": {"type": "Point", "coordinates": [-84.3905, 33.7495]}, "properties": {"name": "Shrine of the Immaculate Conception Pantry", "address": "48 MLK Jr Dr SW, Atlanta, GA 30303", "phone": "(404) 521-1866", "neighborhood": "Downtown", "city": "Atlanta", "county": "Fulton", "site_type": "Church Pantry", "tier": "Metro expansion"}}, {"type": "Feature", "geometry": {"type": "Point", "coordinates": [-84.39, 33.716]}, "properties": {"name": "St Paul AME Church Pantry", "address": "1540 Pryor Rd SW, Atlanta, GA 30315", "phone": "(404) 761-3900", "neighborhood": "South Atlanta", "city": "Atlanta", "county": "Fulton", "site_type": "Church Pantry", "tier": "Metro expansion"}}, {"type": "Feature", "geometry": {"type": "Point", "coordinates": [-84.6, 33.7]}, "properties": {"name": "Zion Hill Baptist Church Pantry", "address": "6175 Campbellton Rd SW, Atlanta, GA 30331", "phone": "(404) 691-1499", "neighborhood": "SW Atlanta", "city": "Atlanta", "county": "Fulton", "site_type": "Church Pantry", "tier": "Metro expansion"}}, {"type": "Feature", "geometry": {"type": "Point", "coordinates": [-84.26, 33.69]}, "properties": {"name": "Greenforest Community Baptist Church Pantry", "address": "3250 Rainbow Dr, Decatur, GA 30034", "phone": "(404) 486-1120", "neighborhood": "Decatur", "city": "Decatur", "county": "DeKalb", "site_type": "Church Pantry", "tier": "Metro expansion"}}, {"type": "Feature", "geometry": {"type": "Point", "coordinates": [-84.59, 33.78]}, "properties": {"name": "Word of Faith Family Worship Cathedral Pantry", "address": "212 Riverside Pkwy, Austell, GA 30168", "phone": "(770) 944-9400", "neighborhood": "Austell", "city": "Austell", "county": "Cobb", "site_type": "Church Pantry", "tier": "Metro expansion"}}]}