{
"type": "FeatureCollection",
"name": "circular_economy",
"crs": { "type": "name", "properties": { "name": "urn:ogc:def:crs:OGC:1.3:CRS84" } },
"features": [
{ "type": "Feature", "properties": { "display_name": "Adamsville Elementary School", "sub_type": "Garden", "address": "", "source_pkg": "pkg_gardens_farms_and_orchards_atlanta.geojson", "category": "Circular/Compost Network" }, "geometry": { "type": "Point", "coordinates": [ -84.514224857445058, 33.755051014144875 ] } },
{ "type": "Feature", "properties": { "display_name": "BEECHER HILLS ELEMENTARY SCHOOL", "sub_type": "Garden", "address": "", "source_pkg": "pkg_gardens_farms_and_orchards_atlanta.geojson", "category": "Circular/Compost Network" }, "geometry": { "type": "Point", "coordinates": [ -84.462510694023564, 33.735400591570972 ] } },
{ "type": "Feature", "properties": { "display_name": "BETHUNE ELEMENTARY SCHOOL", "sub_type": "Garden", "address": "", "source_pkg": "pkg_gardens_farms_and_orchards_atlanta.geojson", "category": "Circular/Compost Network" }, "geometry": { "type": "Point", "coordinates": [ -84.403240542869895, 33.760482876514587 ] } },
{ "type": "Feature", "properties": { "display_name": "BOLTON ACADEMY", "sub_type": "Garden", "address": "", "source_pkg": "pkg_gardens_farms_and_orchards_atlanta.geojson", "category": "Circular/Compost Network" }, "geometry": { "type": "Point", "coordinates": [ -84.454951310925495, 33.817497359310082 ] } },
{ "type": "Feature", "properties": { "display_name": "BRIAR VISTA ELEMENTARY SCHOOL", "sub_type": "Garden", "address": "", "source_pkg": "pkg_gardens_farms_and_orchards_atlanta.geojson", "category": "Circular/Compost Network" }, "geometry": { "type": "Point", "coordinates": [ -84.337659857006599, 33.810786777352199 ] } },
{ "type": "Feature", "properties": { "display_name": "CASCADE ELEMENTARY SCHOOL", "sub_type": "Garden", "address": "", "source_pkg": "pkg_gardens_farms_and_orchards_atlanta.geojson", "category": "Circular/Compost Network" }, "geometry": { "type": "Point", "coordinates": [ -84.465379089198962, 33.7179360992656 ] } },
{ "type": "Feature", "properties": { "display_name": "CHARLES DREW CHARTER SCHOOL", "sub_type": "Garden", "address": "", "source_pkg": "pkg_gardens_farms_and_orchards_atlanta.geojson", "category": "Circular/Compost Network" }, "geometry": { "type": "Point", "coordinates": [ -84.314252191425666, 33.74482371181594 ] } },
{ "type": "Feature", "properties": { "display_name": "D. H. STANTON ELEMENTARY SCHOOL", "sub_type": "Garden", "address": "", "source_pkg": "pkg_gardens_farms_and_orchards_atlanta.geojson", "category": "Circular/Compost Network" }, "geometry": { "type": "Point", "coordinates": [ -84.383086566584936, 33.727953407844709 ] } },
{ "type": "Feature", "properties": { "display_name": "DEERWOOD ACADEMY SCHOOL", "sub_type": "Garden", "address": "", "source_pkg": "pkg_gardens_farms_and_orchards_atlanta.geojson", "category": "Circular/Compost Network" }, "geometry": { "type": "Point", "coordinates": [ -84.514293709854954, 33.671181421995833 ] } },
{ "type": "Feature", "properties": { "display_name": "DOBBS ELEMENTARY SCHOOL", "sub_type": "Garden", "address": "", "source_pkg": "pkg_gardens_farms_and_orchards_atlanta.geojson", "category": "Circular/Compost Network" }, "geometry": { "type": "Point", "coordinates": [ -84.372502371828247, 33.699593476912725 ] } },
{ "type": "Feature", "properties": { "display_name": "DUNBAR ELEMENTARY SCHOOL", "sub_type": "Garden", "address": "", "source_pkg": "pkg_gardens_farms_and_orchards_atlanta.geojson", "category": "Circular/Compost Network" }, "geometry": { "type": "Point", "coordinates": [ -84.401533609597692, 33.741157249872288 ] } },
{ "type": "Feature", "properties": { "display_name": "FICKETT ELEMENTARY SCHOOL", "sub_type": "Garden", "address": "", "source_pkg": "pkg_gardens_farms_and_orchards_atlanta.geojson", "category": "Circular/Compost Network" }, "geometry": { "type": "Point", "coordinates": [ -84.514164607014976, 33.696640565277285 ] } },
{ "type": "Feature", "properties": { "display_name": "GIDEONS ELEMENTARY SCHOOL", "sub_type": "Garden", "address": "", "source_pkg": "pkg_gardens_farms_and_orchards_atlanta.geojson", "category": "Circular/Compost Network" }, "geometry": { "type": "Point", "coordinates": [ -84.405125774244681, 33.730600388443555 ] } },
{ "type": "Feature", "properties": { "display_name": "HERITAGE ACADEMY ELEMENTARY", "sub_type": "Garden", "address": "", "source_pkg": "pkg_gardens_farms_and_orchards_atlanta.geojson", "category": "Circular/Compost Network" }, "geometry": { "type": "Point", "coordinates": [ -84.379033747079788, 33.659643585917642 ] } },
{ "type": "Feature", "properties": { "display_name": "HOPE HILL ELEMENTARY SCHOOL", "sub_type": "Garden", "address": "", "source_pkg": "pkg_gardens_farms_and_orchards_atlanta.geojson", "category": "Circular/Compost Network" }, "geometry": { "type": "Point", "coordinates": [ -84.372263454354808, 33.757473619166511 ] } },
{ "type": "Feature", "properties": { "display_name": "HUMPHRIES ELEMENTARY SCHOOL", "sub_type": "Garden", "address": "", "source_pkg": "pkg_gardens_farms_and_orchards_atlanta.geojson", "category": "Circular/Compost Network" }, "geometry": { "type": "Point", "coordinates": [ -84.376614988018048, 33.672817290545964 ] } },
{ "type": "Feature", "properties": { "display_name": "HUTCHINSON ELEMENTARY SCHOOL", "sub_type": "Garden", "address": "", "source_pkg": "pkg_gardens_farms_and_orchards_atlanta.geojson", "category": "Circular/Compost Network" }, "geometry": { "type": "Point", "coordinates": [ -84.410203883918641, 33.681167275237748 ] } },
{ "type": "Feature", "properties": { "display_name": "KING MIDDLE SCHOOL", "sub_type": "Garden", "address": "", "source_pkg": "pkg_gardens_farms_and_orchards_atlanta.geojson", "category": "Circular/Compost Network" }, "geometry": { "type": "Point", "coordinates": [ -84.379060306674205, 33.738873396895791 ] } },
{ "type": "Feature", "properties": { "display_name": "KIPP STRIVE PRIMARY SCHOOL", "sub_type": "Garden", "address": "", "source_pkg": "pkg_gardens_farms_and_orchards_atlanta.geojson", "category": "Circular/Compost Network" }, "geometry": { "type": "Point", "coordinates": [ -84.435135624731856, 33.742395805815946 ] } },
{ "type": "Feature", "properties": { "display_name": "M Agnes Jones Elementary", "sub_type": "Garden", "address": "", "source_pkg": "pkg_gardens_farms_and_orchards_atlanta.geojson", "category": "Circular/Compost Network" }, "geometry": { "type": "Point", "coordinates": [ -84.422098387919831, 33.748912564385606 ] } },
{ "type": "Feature", "properties": { "display_name": "MORNINGSIDE ELEMENTARY SCHOOL", "sub_type": "Garden", "address": "", "source_pkg": "pkg_gardens_farms_and_orchards_atlanta.geojson", "category": "Circular/Compost Network" }, "geometry": { "type": "Point", "coordinates": [ -84.352607910599659, 33.797286464772547 ] } },
{ "type": "Feature", "properties": { "display_name": "SAGAMORE HILLS ELEMENTARY SCHOOL", "sub_type": "Garden", "address": "", "source_pkg": "pkg_gardens_farms_and_orchards_atlanta.geojson", "category": "Circular/Compost Network" }, "geometry": { "type": "Point", "coordinates": [ -84.304667676225549, 33.832598573320787 ] } },
{ "type": "Feature", "properties": { "display_name": "SLATER ELEMENTARY SCHOOL", "sub_type": "Garden", "address": "", "source_pkg": "pkg_gardens_farms_and_orchards_atlanta.geojson", "category": "Circular/Compost Network" }, "geometry": { "type": "Point", "coordinates": [ -84.39324101301473, 33.718606728698305 ] } },
{ "type": "Feature", "properties": { "display_name": "SPRINGDALE PARK ELEMENTARY SCHOOL", "sub_type": "Garden", "address": "", "source_pkg": "pkg_gardens_farms_and_orchards_atlanta.geojson", "category": "Circular/Compost Network" }, "geometry": { "type": "Point", "coordinates": [ -84.346821306788485, 33.774490150504555 ] } },
{ "type": "Feature", "properties": { "display_name": "TOOMER ELEMENTARY SCHOOL", "sub_type": "Garden", "address": "", "source_pkg": "pkg_gardens_farms_and_orchards_atlanta.geojson", "category": "Circular/Compost Network" }, "geometry": { "type": "Point", "coordinates": [ -84.328998305290497, 33.755131101274522 ] } },
{ "type": "Feature", "properties": { "display_name": "Warren T Jackson Elementary School", "sub_type": "Garden", "address": "", "source_pkg": "pkg_gardens_farms_and_orchards_atlanta.geojson", "category": "Circular/Compost Network" }, "geometry": { "type": "Point", "coordinates": [ -84.421916769700942, 33.871233004428191 ] } },
{ "type": "Feature", "properties": { "display_name": "WEST MANOR ELEMENTARY SCHOOL", "sub_type": "Garden", "address": "", "source_pkg": "pkg_gardens_farms_and_orchards_atlanta.geojson", "category": "Circular/Compost Network" }, "geometry": { "type": "Point", "coordinates": [ -84.490664401528633, 33.740005467824936 ] } },
{ "type": "Feature", "properties": { "display_name": "WOODSON ELEMENTARY SCHOOL", "sub_type": "Garden", "address": "", "source_pkg": "pkg_gardens_farms_and_orchards_atlanta.geojson", "category": "Circular/Compost Network" }, "geometry": { "type": "Point", "coordinates": [ -84.440287064244202, 33.772171649755705 ] } },
{ "type": "Feature", "properties": { "display_name": "Cleveland Avenue Elementary", "sub_type": "Garden", "address": "", "source_pkg": "pkg_gardens_farms_and_orchards_atlanta.geojson", "category": "Circular/Compost Network" }, "geometry": { "type": "Point", "coordinates": [ -84.393967525737352, 33.682277850534696 ] } },
{ "type": "Feature", "properties": { "display_name": "E.L. Connally Elementary School", "sub_type": "Garden", "address": "", "source_pkg": "pkg_gardens_farms_and_orchards_atlanta.geojson", "category": "Circular/Compost Network" }, "geometry": { "type": "Point", "coordinates": [ -84.441900220376468, 33.731166678152661 ] } },
{ "type": "Feature", "properties": { "display_name": "Grove Park Intermediate School", "sub_type": "Garden", "address": "", "source_pkg": "pkg_gardens_farms_and_orchards_atlanta.geojson", "category": "Circular/Compost Network" }, "geometry": { "type": "Point", "coordinates": [ -84.444210177171712, 33.772381449887888 ] } },
{ "type": "Feature", "properties": { "display_name": "The Intown Academy", "sub_type": "Garden", "address": "", "source_pkg": "pkg_gardens_farms_and_orchards_atlanta.geojson", "category": "Circular/Compost Network" }, "geometry": { "type": "Point", "coordinates": [ -84.374734461359964, 33.767802047150106 ] } },
{ "type": "Feature", "properties": { "display_name": "KINDEZI School", "sub_type": "Garden", "address": "", "source_pkg": "pkg_gardens_farms_and_orchards_atlanta.geojson", "category": "Circular/Compost Network" }, "geometry": { "type": "Point", "coordinates": [ -84.451196313243116, 33.756155156731275 ] } },
{ "type": "Feature", "properties": { "display_name": "William J Scott ELEMENTARY SCHOOL", "sub_type": "Garden", "address": "", "source_pkg": "pkg_gardens_farms_and_orchards_atlanta.geojson", "category": "Circular/Compost Network" }, "geometry": { "type": "Point", "coordinates": [ -84.470420054285697, 33.803326415799368 ] } },
{ "type": "Feature", "properties": { "display_name": "", "sub_type": "", "address": "1030 Exchange Place", "source_pkg": "pkg_food_processing_facilities_in_the_southeast.geojson", "category": "Circular/Compost Network" }, "geometry": { "type": "Point", "coordinates": [ -84.1402, 34.2071 ] } },
{ "type": "Feature", "properties": { "display_name": "", "sub_type": "", "address": "501 Plant Avenue", "source_pkg": "pkg_food_processing_facilities_in_the_southeast.geojson", "category": "Circular/Compost Network" }, "geometry": { "type": "Point", "coordinates": [ -84.4474, 31.7735 ] } },
{ "type": "Feature", "properties": { "display_name": "", "sub_type": "", "address": "6000 Fulton Industrial Boulevard", "source_pkg": "pkg_food_processing_facilities_in_the_southeast.geojson", "category": "Circular/Compost Network" }, "geometry": { "type": "Point", "coordinates": [ -84.5563, 33.5874 ] } },
{ "type": "Feature", "properties": { "display_name": "", "sub_type": "", "address": "1000 Tyson Drive", "source_pkg": "pkg_food_processing_facilities_in_the_southeast.geojson", "category": "Circular/Compost Network" }, "geometry": { "type": "Point", "coordinates": [ -89.4743, 32.3646 ] } },
{ "type": "Feature", "properties": { "display_name": "", "sub_type": "", "address": "4575 Tyson Drive", "source_pkg": "pkg_food_processing_facilities_in_the_southeast.geojson", "category": "Circular/Compost Network" }, "geometry": { "type": "Point", "coordinates": [ -80.5495, 34.9854 ] } },
{ "type": "Feature", "properties": { "display_name": "", "sub_type": "", "address": "800 Tyson Drive", "source_pkg": "pkg_food_processing_facilities_in_the_southeast.geojson", "category": "Circular/Compost Network" }, "geometry": { "type": "Point", "coordinates": [ -86.2086, 34.2676 ] } },
{ "type": "Feature", "properties": { "display_name": "", "sub_type": "", "address": "390 Tyson Drive", "source_pkg": "pkg_food_processing_facilities_in_the_southeast.geojson", "category": "Circular/Compost Network" }, "geometry": { "type": "Point", "coordinates": [ -86.5916, 34.0815 ] } },
{ "type": "Feature", "properties": { "display_name": "", "sub_type": "", "address": "310 Pilgrim Drive", "source_pkg": "pkg_food_processing_facilities_in_the_southeast.geojson", "category": "Circular/Compost Network" }, "geometry": { "type": "Point", "coordinates": [ -83.3932, 33.9608 ] } },
{ "type": "Feature", "properties": { "display_name": "", "sub_type": "", "address": "1570 Industrial Boulevard NE", "source_pkg": "pkg_food_processing_facilities_in_the_southeast.geojson", "category": "Circular/Compost Network" }, "geometry": { "type": "Point", "coordinates": [ -83.816, 34.312 ] } },
{ "type": "Feature", "properties": { "display_name": "", "sub_type": "", "address": "990 Pine Street", "source_pkg": "pkg_food_processing_facilities_in_the_southeast.geojson", "category": "Circular/Compost Network" }, "geometry": { "type": "Point", "coordinates": [ -83.849, 34.2979 ] } },
{ "type": "Feature", "properties": { "display_name": "", "sub_type": "", "address": "1225 Bowens Mill Road SE", "source_pkg": "pkg_food_processing_facilities_in_the_southeast.geojson", "category": "Circular/Compost Network" }, "geometry": { "type": "Point", "coordinates": [ -82.8493, 31.4878 ] } },
{ "type": "Feature", "properties": { "display_name": "", "sub_type": "", "address": "1384 Marietta Highway", "source_pkg": "pkg_food_processing_facilities_in_the_southeast.geojson", "category": "Circular/Compost Network" }, "geometry": { "type": "Point", "coordinates": [ -84.5143, 34.2225 ] } },
{ "type": "Feature", "properties": { "display_name": "", "sub_type": "", "address": "325 Megerian Drive", "source_pkg": "pkg_food_processing_facilities_in_the_southeast.geojson", "category": "Circular/Compost Network" }, "geometry": { "type": "Point", "coordinates": [ -79.1803, 35.4821 ] } },
{ "type": "Feature", "properties": { "display_name": "", "sub_type": "", "address": "700 East Union Street", "source_pkg": "pkg_food_processing_facilities_in_the_southeast.geojson", "category": "Circular/Compost Network" }, "geometry": { "type": "Point", "coordinates": [ -80.3678, 34.9888 ] } },
{ "type": "Feature", "properties": { "display_name": "", "sub_type": "", "address": "1401 Bachman Street", "source_pkg": "pkg_food_processing_facilities_in_the_southeast.geojson", "category": "Circular/Compost Network" }, "geometry": { "type": "Point", "coordinates": [ -85.2458, 35.0363 ] } },
{ "type": "Feature", "properties": { "display_name": "", "sub_type": "", "address": "1101 Main Street", "source_pkg": "pkg_food_processing_facilities_in_the_southeast.geojson", "category": "Circular/Compost Network" }, "geometry": { "type": "Point", "coordinates": [ -83.7316, 32.4586 ] } },
{ "type": "Feature", "properties": { "display_name": "", "sub_type": "", "address": "100 Perdue Lane", "source_pkg": "pkg_food_processing_facilities_in_the_southeast.geojson", "category": "Circular/Compost Network" }, "geometry": { "type": "Point", "coordinates": [ -85.2683, 36.1459 ] } },
{ "type": "Feature", "properties": { "display_name": "", "sub_type": "", "address": "3100 Fortner Street", "source_pkg": "pkg_food_processing_facilities_in_the_southeast.geojson", "category": "Circular/Compost Network" }, "geometry": { "type": "Point", "coordinates": [ -85.3905, 31.2334 ] } },
{ "type": "Feature", "properties": { "display_name": "", "sub_type": "", "address": "275 Perdue Drive", "source_pkg": "pkg_food_processing_facilities_in_the_southeast.geojson", "category": "Circular/Compost Network" }, "geometry": { "type": "Point", "coordinates": [ -86.7534, 37.3345 ] } },
{ "type": "Feature", "properties": { "display_name": "", "sub_type": "", "address": "2108 Athens Highway", "source_pkg": "pkg_food_processing_facilities_in_the_southeast.geojson", "category": "Circular/Compost Network" }, "geometry": { "type": "Point", "coordinates": [ -83.8713, 34.2407 ] } },
{ "type": "Feature", "properties": { "display_name": "", "sub_type": "", "address": "1500 Hoods Mill Road", "source_pkg": "pkg_food_processing_facilities_in_the_southeast.geojson", "category": "Circular/Compost Network" }, "geometry": { "type": "Point", "coordinates": [ -83.6788, 34.1638 ] } },
{ "type": "Feature", "properties": { "display_name": "", "sub_type": "", "address": "600 Boll Weevil Circle", "source_pkg": "pkg_food_processing_facilities_in_the_southeast.geojson", "category": "Circular/Compost Network" }, "geometry": { "type": "Point", "coordinates": [ -85.8553, 31.3154 ] } },
{ "type": "Feature", "properties": { "display_name": "", "sub_type": "", "address": "1400 Point Mallard Parkway", "source_pkg": "pkg_food_processing_facilities_in_the_southeast.geojson", "category": "Circular/Compost Network" }, "geometry": { "type": "Point", "coordinates": [ -86.9833, 34.5657 ] } },
{ "type": "Feature", "properties": { "display_name": "", "sub_type": "", "address": "1520 Wayne Farms Road", "source_pkg": "pkg_food_processing_facilities_in_the_southeast.geojson", "category": "Circular/Compost Network" }, "geometry": { "type": "Point", "coordinates": [ -89.1306, 31.694 ] } },
{ "type": "Feature", "properties": { "display_name": "", "sub_type": "", "address": "1100 Veterans Parkway S", "source_pkg": "pkg_food_processing_facilities_in_the_southeast.geojson", "category": "Circular/Compost Network" }, "geometry": { "type": "Point", "coordinates": [ -83.7827, 31.1499 ] } },
{ "type": "Feature", "properties": { "display_name": "", "sub_type": "", "address": "600 Sanderson Way", "source_pkg": "pkg_food_processing_facilities_in_the_southeast.geojson", "category": "Circular/Compost Network" }, "geometry": { "type": "Point", "coordinates": [ -77.5811, 35.2371 ] } },
{ "type": "Feature", "properties": { "display_name": "", "sub_type": "", "address": "111 Sanderson Lane", "source_pkg": "pkg_food_processing_facilities_in_the_southeast.geojson", "category": "Circular/Compost Network" }, "geometry": { "type": "Point", "coordinates": [ -90.4612, 30.5043 ] } },
{ "type": "Feature", "properties": { "display_name": "", "sub_type": "", "address": "501 Industrial Park Road", "source_pkg": "pkg_food_processing_facilities_in_the_southeast.geojson", "category": "Circular/Compost Network" }, "geometry": { "type": "Point", "coordinates": [ -90.4534, 31.2438 ] } },
{ "type": "Feature", "properties": { "display_name": "", "sub_type": "", "address": "222 Sanderson Drive", "source_pkg": "pkg_food_processing_facilities_in_the_southeast.geojson", "category": "Circular/Compost Network" }, "geometry": { "type": "Point", "coordinates": [ -90.3954, 31.8604 ] } },
{ "type": "Feature", "properties": { "display_name": "", "sub_type": "", "address": "1020 Aviation Boulevard", "source_pkg": "pkg_food_processing_facilities_in_the_southeast.geojson", "category": "Circular/Compost Network" }, "geometry": { "type": "Point", "coordinates": [ -83.8298, 34.285 ] } },
{ "type": "Feature", "properties": { "display_name": "", "sub_type": "", "address": "200 Mar-Jac Lane", "source_pkg": "pkg_food_processing_facilities_in_the_southeast.geojson", "category": "Circular/Compost Network" }, "geometry": { "type": "Point", "coordinates": [ -89.2903, 31.3271 ] } },
{ "type": "Feature", "properties": { "display_name": "", "sub_type": "", "address": "100 Plant Avenue", "source_pkg": "pkg_food_processing_facilities_in_the_southeast.geojson", "category": "Circular/Compost Network" }, "geometry": { "type": "Point", "coordinates": [ -81.904, 32.1616 ] } },
{ "type": "Feature", "properties": { "display_name": "", "sub_type": "", "address": "1200 Riverside Drive", "source_pkg": "pkg_food_processing_facilities_in_the_southeast.geojson", "category": "Circular/Compost Network" }, "geometry": { "type": "Point", "coordinates": [ -85.2379, 35.0252 ] } },
{ "type": "Feature", "properties": { "display_name": "", "sub_type": "", "address": "500 Koch Foods Drive", "source_pkg": "pkg_food_processing_facilities_in_the_southeast.geojson", "category": "Circular/Compost Network" }, "geometry": { "type": "Point", "coordinates": [ -83.2949, 36.214 ] } },
{ "type": "Feature", "properties": { "display_name": "", "sub_type": "", "address": "1101 Hoke Street", "source_pkg": "pkg_food_processing_facilities_in_the_southeast.geojson", "category": "Circular/Compost Network" }, "geometry": { "type": "Point", "coordinates": [ -85.9713, 34.0143 ] } },
{ "type": "Feature", "properties": { "display_name": "", "sub_type": "", "address": "200 Koch Foods Lane", "source_pkg": "pkg_food_processing_facilities_in_the_southeast.geojson", "category": "Circular/Compost Network" }, "geometry": { "type": "Point", "coordinates": [ -85.8363, 33.2737 ] } },
{ "type": "Feature", "properties": { "display_name": "", "sub_type": "", "address": "101 Mountaire Drive", "source_pkg": "pkg_food_processing_facilities_in_the_southeast.geojson", "category": "Circular/Compost Network" }, "geometry": { "type": "Point", "coordinates": [ -82.6796, 31.9282 ] } },
{ "type": "Feature", "properties": { "display_name": "", "sub_type": "", "address": "400 Mountaire Road", "source_pkg": "pkg_food_processing_facilities_in_the_southeast.geojson", "category": "Circular/Compost Network" }, "geometry": { "type": "Point", "coordinates": [ -79.4623, 35.7235 ] } },
{ "type": "Feature", "properties": { "display_name": "", "sub_type": "", "address": "1000 Keystone Boulevard", "source_pkg": "pkg_food_processing_facilities_in_the_southeast.geojson", "category": "Circular/Compost Network" }, "geometry": { "type": "Point", "coordinates": [ -86.0085, 34.0076 ] } },
{ "type": "Feature", "properties": { "display_name": "", "sub_type": "", "address": "501 Keystone Drive", "source_pkg": "pkg_food_processing_facilities_in_the_southeast.geojson", "category": "Circular/Compost Network" }, "geometry": { "type": "Point", "coordinates": [ -84.1557, 31.5785 ] } },
{ "type": "Feature", "properties": { "display_name": "", "sub_type": "", "address": "200 Cagle Drive", "source_pkg": "pkg_food_processing_facilities_in_the_southeast.geojson", "category": "Circular/Compost Network" }, "geometry": { "type": "Point", "coordinates": [ -85.8602, 34.2681 ] } },
{ "type": "Feature", "properties": { "display_name": "", "sub_type": "", "address": "2355 Peco Road", "source_pkg": "pkg_food_processing_facilities_in_the_southeast.geojson", "category": "Circular/Compost Network" }, "geometry": { "type": "Point", "coordinates": [ -87.5692, 33.2098 ] } },
{ "type": "Feature", "properties": { "display_name": "", "sub_type": "", "address": "100 Peco Drive", "source_pkg": "pkg_food_processing_facilities_in_the_southeast.geojson", "category": "Circular/Compost Network" }, "geometry": { "type": "Point", "coordinates": [ -89.334, 32.5693 ] } },
{ "type": "Feature", "properties": { "display_name": "", "sub_type": "", "address": "550 East Central Avenue", "source_pkg": "pkg_food_processing_facilities_in_the_southeast.geojson", "category": "Circular/Compost Network" }, "geometry": { "type": "Point", "coordinates": [ -79.2224, 34.9802 ] } },
{ "type": "Feature", "properties": { "display_name": "", "sub_type": "", "address": "201 Raeford Drive", "source_pkg": "pkg_food_processing_facilities_in_the_southeast.geojson", "category": "Circular/Compost Network" }, "geometry": { "type": "Point", "coordinates": [ -82.394, 34.8526 ] } },
{ "type": "Feature", "properties": { "display_name": "", "sub_type": "", "address": "1919 Flowers Circle", "source_pkg": "pkg_food_processing_facilities_in_the_southeast.geojson", "category": "Circular/Compost Network" }, "geometry": { "type": "Point", "coordinates": [ -83.9786, 30.8366 ] } },
{ "type": "Feature", "properties": { "display_name": "", "sub_type": "", "address": "500 Flowers Parkway", "source_pkg": "pkg_food_processing_facilities_in_the_southeast.geojson", "category": "Circular/Compost Network" }, "geometry": { "type": "Point", "coordinates": [ -85.0892, 33.7321 ] } },
{ "type": "Feature", "properties": { "display_name": "", "sub_type": "", "address": "1501 Greensboro Avenue", "source_pkg": "pkg_food_processing_facilities_in_the_southeast.geojson", "category": "Circular/Compost Network" }, "geometry": { "type": "Point", "coordinates": [ -87.5531, 33.1884 ] } },
{ "type": "Feature", "properties": { "display_name": "", "sub_type": "", "address": "3050 Odd Fellows Road", "source_pkg": "pkg_food_processing_facilities_in_the_southeast.geojson", "category": "Circular/Compost Network" }, "geometry": { "type": "Point", "coordinates": [ -79.1422, 37.4316 ] } },
{ "type": "Feature", "properties": { "display_name": "", "sub_type": "", "address": "2200 Newmarket Parkway", "source_pkg": "pkg_food_processing_facilities_in_the_southeast.geojson", "category": "Circular/Compost Network" }, "geometry": { "type": "Point", "coordinates": [ -84.4628, 33.9321 ] } },
{ "type": "Feature", "properties": { "display_name": "", "sub_type": "", "address": "200 Bimbo Boulevard", "source_pkg": "pkg_food_processing_facilities_in_the_southeast.geojson", "category": "Circular/Compost Network" }, "geometry": { "type": "Point", "coordinates": [ -86.8025, 33.5207 ] } },
{ "type": "Feature", "properties": { "display_name": "", "sub_type": "", "address": "1 Coca-Cola Plaza NW", "source_pkg": "pkg_food_processing_facilities_in_the_southeast.geojson", "category": "Circular/Compost Network" }, "geometry": { "type": "Point", "coordinates": [ -84.393, 33.7626 ] } },
{ "type": "Feature", "properties": { "display_name": "", "sub_type": "", "address": "2500 Windy Hill Road", "source_pkg": "pkg_food_processing_facilities_in_the_southeast.geojson", "category": "Circular/Compost Network" }, "geometry": { "type": "Point", "coordinates": [ -84.4671, 33.9127 ] } },
{ "type": "Feature", "properties": { "display_name": "", "sub_type": "", "address": "4100 Coca-Cola Plaza", "source_pkg": "pkg_food_processing_facilities_in_the_southeast.geojson", "category": "Circular/Compost Network" }, "geometry": { "type": "Point", "coordinates": [ -80.7921, 35.1674 ] } },
{ "type": "Feature", "properties": { "display_name": "", "sub_type": "", "address": "200 Frito-Lay Drive", "source_pkg": "pkg_food_processing_facilities_in_the_southeast.geojson", "category": "Circular/Compost Network" }, "geometry": { "type": "Point", "coordinates": [ -83.7282, 32.4621 ] } },
{ "type": "Feature", "properties": { "display_name": "", "sub_type": "", "address": "100 Frito-Lay Boulevard", "source_pkg": "pkg_food_processing_facilities_in_the_southeast.geojson", "category": "Circular/Compost Network" }, "geometry": { "type": "Point", "coordinates": [ -83.6261, 32.4855 ] } },
{ "type": "Feature", "properties": { "display_name": "", "sub_type": "", "address": "4000 Pepsi Way", "source_pkg": "pkg_food_processing_facilities_in_the_southeast.geojson", "category": "Circular/Compost Network" }, "geometry": { "type": "Point", "coordinates": [ -84.5276, 33.7337 ] } },
{ "type": "Feature", "properties": { "display_name": "", "sub_type": "", "address": "5200 Buffington Road", "source_pkg": "pkg_food_processing_facilities_in_the_southeast.geojson", "category": "Circular/Compost Network" }, "geometry": { "type": "Point", "coordinates": [ -84.435, 33.6313 ] } },
{ "type": "Feature", "properties": { "display_name": "", "sub_type": "", "address": "6901 Best Friend Road", "source_pkg": "pkg_food_processing_facilities_in_the_southeast.geojson", "category": "Circular/Compost Network" }, "geometry": { "type": "Point", "coordinates": [ -84.2655, 33.9024 ] } },
{ "type": "Feature", "properties": { "display_name": "", "sub_type": "", "address": "2200 PFG Way", "source_pkg": "pkg_food_processing_facilities_in_the_southeast.geojson", "category": "Circular/Compost Network" }, "geometry": { "type": "Point", "coordinates": [ -84.3317, 33.6412 ] } },
{ "type": "Feature", "properties": { "display_name": "", "sub_type": "", "address": "200 Martin-Brower Drive", "source_pkg": "pkg_food_processing_facilities_in_the_southeast.geojson", "category": "Circular/Compost Network" }, "geometry": { "type": "Point", "coordinates": [ -84.2316, 33.5443 ] } },
{ "type": "Feature", "properties": { "display_name": "", "sub_type": "", "address": "100 GSF Parkway", "source_pkg": "pkg_food_processing_facilities_in_the_southeast.geojson", "category": "Circular/Compost Network" }, "geometry": { "type": "Point", "coordinates": [ -84.1469, 33.4468 ] } },
{ "type": "Feature", "properties": { "display_name": "", "sub_type": "", "address": "100 Chick-fil-A Supply Drive", "source_pkg": "pkg_food_processing_facilities_in_the_southeast.geojson", "category": "Circular/Compost Network" }, "geometry": { "type": "Point", "coordinates": [ -84.7999, 34.1651 ] } },
{ "type": "Feature", "properties": { "display_name": "", "sub_type": "", "address": "200 CFA Supply Way", "source_pkg": "pkg_food_processing_facilities_in_the_southeast.geojson", "category": "Circular/Compost Network" }, "geometry": { "type": "Point", "coordinates": [ -79.2668, 36.096 ] } },
{ "type": "Feature", "properties": { "display_name": "", "sub_type": "", "address": "5986 Financial Drive", "source_pkg": "pkg_food_processing_facilities_in_the_southeast.geojson", "category": "Circular/Compost Network" }, "geometry": { "type": "Point", "coordinates": [ -84.2135, 33.9291 ] } },
{ "type": "Feature", "properties": { "display_name": "", "sub_type": "", "address": "10 Glenlake Parkway Suite 600", "source_pkg": "pkg_food_processing_facilities_in_the_southeast.geojson", "category": "Circular/Compost Network" }, "geometry": { "type": "Point", "coordinates": [ -84.3573, 33.9301 ] } },
{ "type": "Feature", "properties": { "display_name": "", "sub_type": "", "address": "200 Cold Storage Road", "source_pkg": "pkg_food_processing_facilities_in_the_southeast.geojson", "category": "Circular/Compost Network" }, "geometry": { "type": "Point", "coordinates": [ -85.0764, 33.4476 ] } },
{ "type": "Feature", "properties": { "display_name": "", "sub_type": "", "address": "3000 Logistics Way", "source_pkg": "pkg_food_processing_facilities_in_the_southeast.geojson", "category": "Circular/Compost Network" }, "geometry": { "type": "Point", "coordinates": [ -84.359, 33.6186 ] } },
{ "type": "Feature", "properties": { "display_name": "", "sub_type": "", "address": "100 Cold Chain Drive", "source_pkg": "pkg_food_processing_facilities_in_the_southeast.geojson", "category": "Circular/Compost Network" }, "geometry": { "type": "Point", "coordinates": [ -81.16, 32.1068 ] } },
{ "type": "Feature", "properties": { "display_name": "", "sub_type": "", "address": "1000 JBS Parkway", "source_pkg": "pkg_food_processing_facilities_in_the_southeast.geojson", "category": "Circular/Compost Network" }, "geometry": { "type": "Point", "coordinates": [ -83.83, 34.3005 ] } },
{ "type": "Feature", "properties": { "display_name": "", "sub_type": "", "address": "12000 Smithfield Way", "source_pkg": "pkg_food_processing_facilities_in_the_southeast.geojson", "category": "Circular/Compost Network" }, "geometry": { "type": "Point", "coordinates": [ -78.7866, 34.7314 ] } },
{ "type": "Feature", "properties": { "display_name": "", "sub_type": "", "address": "500 Smithfield Road", "source_pkg": "pkg_food_processing_facilities_in_the_southeast.geojson", "category": "Circular/Compost Network" }, "geometry": { "type": "Point", "coordinates": [ -78.3233, 35.0077 ] } },
{ "type": "Feature", "properties": { "display_name": "", "sub_type": "", "address": "200 Hormel Lane", "source_pkg": "pkg_food_processing_facilities_in_the_southeast.geojson", "category": "Circular/Compost Network" }, "geometry": { "type": "Point", "coordinates": [ -83.8788, 35.9606 ] } },
{ "type": "Feature", "properties": { "display_name": "", "sub_type": "", "address": "500 Conagra Drive", "source_pkg": "pkg_food_processing_facilities_in_the_southeast.geojson", "category": "Circular/Compost Network" }, "geometry": { "type": "Point", "coordinates": [ -83.8358, 31.531 ] } },
{ "type": "Feature", "properties": { "display_name": "", "sub_type": "", "address": "4900 Lakeland Commerce Parkway", "source_pkg": "pkg_food_processing_facilities_in_the_southeast.geojson", "category": "Circular/Compost Network" }, "geometry": { "type": "Point", "coordinates": [ -81.9498, 28.0819 ] } },
{ "type": "Feature", "properties": { "display_name": "", "sub_type": "", "address": "100 Smucker Drive", "source_pkg": "pkg_food_processing_facilities_in_the_southeast.geojson", "category": "Circular/Compost Network" }, "geometry": { "type": "Point", "coordinates": [ -86.1905, 36.7534 ] } },
{ "type": "Feature", "properties": { "display_name": "", "sub_type": "", "address": "1001 13th Avenue East", "source_pkg": "pkg_food_processing_facilities_in_the_southeast.geojson", "category": "Circular/Compost Network" }, "geometry": { "type": "Point", "coordinates": [ -82.5515, 27.4956 ] } },
{ "type": "Feature", "properties": { "display_name": "", "sub_type": "", "address": "1200 Industrial Park Drive", "source_pkg": "pkg_food_processing_facilities_in_the_southeast.geojson", "category": "Circular/Compost Network" }, "geometry": { "type": "Point", "coordinates": [ -82.984, 30.2949 ] } },
{ "type": "Feature", "properties": { "display_name": "", "sub_type": "", "address": "1500 Produce Way", "source_pkg": "pkg_food_processing_facilities_in_the_southeast.geojson", "category": "Circular/Compost Network" }, "geometry": { "type": "Point", "coordinates": [ -84.365, 33.615 ] } },
{ "type": "Feature", "properties": { "display_name": "", "sub_type": "", "address": "2000 Fresh Foods Boulevard", "source_pkg": "pkg_food_processing_facilities_in_the_southeast.geojson", "category": "Circular/Compost Network" }, "geometry": { "type": "Point", "coordinates": [ -84.37, 33.62 ] } },
{ "type": "Feature", "properties": { "display_name": "", "sub_type": "", "address": "3000 Gourmet Drive", "source_pkg": "pkg_food_processing_facilities_in_the_southeast.geojson", "category": "Circular/Compost Network" }, "geometry": { "type": "Point", "coordinates": [ -84.33, 33.635 ] } },
{ "type": "Feature", "properties": { "display_name": "", "sub_type": "", "address": "100 Southeastern Drive", "source_pkg": "pkg_food_processing_facilities_in_the_southeast.geojson", "category": "Circular/Compost Network" }, "geometry": { "type": "Point", "coordinates": [ -85.1647, 34.2571 ] } },
{ "type": "Feature", "properties": { "display_name": "Glenn, Towers, Cloudman, Harris", "sub_type": "Housing", "address": "", "source_pkg": "compost_locations.geojson", "category": "Circular/Compost Network" }, "geometry": { "type": "Point", "coordinates": [ -84.391571045235622, 33.772964477284155 ] } },
{ "type": "Feature", "properties": { "display_name": "4th Street Apartments", "sub_type": "Housing", "address": "", "source_pkg": "compost_locations.geojson", "category": "Circular/Compost Network" }, "geometry": { "type": "Point", "coordinates": [ -84.39111328083483, 33.775001525730694 ] } },
{ "type": "Feature", "properties": { "display_name": "IBB", "sub_type": "Dining", "address": "", "source_pkg": "compost_locations.geojson", "category": "Circular/Compost Network" }, "geometry": { "type": "Point", "coordinates": [ -84.397630790884776, 33.778722947507717 ] } },
{ "type": "Feature", "properties": { "display_name": "Dancing Goats", "sub_type": "Dining", "address": "", "source_pkg": "compost_locations.geojson", "category": "Circular/Compost Network" }, "geometry": { "type": "Point", "coordinates": [ -84.398605347085365, 33.773551940699711 ] } },
{ "type": "Feature", "properties": { "display_name": "Carnegie Kitchen", "sub_type": "Dining", "address": "", "source_pkg": "compost_locations.geojson", "category": "Circular/Compost Network" }, "geometry": { "type": "Point", "coordinates": [ -84.394912719702063, 33.773040771306697 ] } },
{ "type": "Feature", "properties": { "display_name": "Kaldi's TS", "sub_type": "Dining", "address": "", "source_pkg": "compost_locations.geojson", "category": "Circular/Compost Network" }, "geometry": { "type": "Point", "coordinates": [ -84.388267516829416, 33.777542114113317 ] } },
{ "type": "Feature", "properties": { "display_name": "Kaldi's Clough", "sub_type": "Dining", "address": "", "source_pkg": "compost_locations.geojson", "category": "Circular/Compost Network" }, "geometry": { "type": "Point", "coordinates": [ -84.396087646923419, 33.77493667595602 ] } },
{ "type": "Feature", "properties": { "display_name": "GLC Catering", "sub_type": "Dining", "address": "", "source_pkg": "compost_locations.geojson", "category": "Circular/Compost Network" }, "geometry": { "type": "Point", "coordinates": [ -84.39018249504646, 33.775947570597033 ] } },
{ "type": "Feature", "properties": { "display_name": "845 Marietta (Dining Office)", "sub_type": "Dining", "address": "", "source_pkg": "compost_locations.geojson", "category": "Circular/Compost Network" }, "geometry": { "type": "Point", "coordinates": [ -84.406234741488348, 33.775802612185046 ] } },
{ "type": "Feature", "properties": { "display_name": "Compost", "sub_type": "OOS", "address": "", "source_pkg": "compost_locations.geojson", "category": "Circular/Compost Network" }, "geometry": { "type": "Point", "coordinates": [ -84.404701232856723, 33.775108337192925 ] } },
{ "type": "Feature", "properties": { "display_name": "O'Keefe", "sub_type": "OOS", "address": "", "source_pkg": "compost_locations.geojson", "category": "Circular/Compost Network" }, "geometry": { "type": "Point", "coordinates": [ -84.39241027832351, 33.778633117643423 ] } }
]
}
